{"type":"FeatureCollection", "features": [
{"type":"Feature","geometry":{"type":"Point","coordinates":[114.2401869,30.56871864]},"properties":{"X":114.2401869,"Y":30.56871864,"name":"中海大厦","volume":"56000","floor_num":"34","Standard_f":"1512.08","net_height":"4.15","passenger_":"9","parking_nu":"340","monthly_re":"80","property_m":"15","vacant_are":"9000","settled_en":36,"address":"湖北省武汉市汉阳区晴川街道知音大道257号"}},
{"type":"Feature","geometry":{"type":"Point","coordinates":[114.2603314,30.56128471]},"properties":{"X":114.2603314,"Y":30.56128471,"name":"天下名企汇","volume":"28000","floor_num":"7","Standard_f":"4000","net_height":"4.5","passenger_":"5","parking_nu":"300","monthly_re":"40-120","property_m":"20","vacant_are":"3000","settled_en":25,"address":"湖北省武汉市汉阳区晴川街道鹦鹉大道48号"}},
{"type":"Feature","geometry":{"type":"Point","coordinates":[114.262745,30.55182145]},"properties":{"X":114.262745,"Y":30.55182145,"name":"汉商银座E座写字楼","volume":"16335","floor_num":"20","Standard_f":"800","net_height":"4.85","passenger_":"3","parking_nu":"320","monthly_re":"40左右","property_m":"3","vacant_are":"0","settled_en":238,"address":"湖北省武汉市汉阳区建桥街道汉阳大道133号"}},
{"type":"Feature","geometry":{"type":"Point","coordinates":[114.2610252,30.55150469]},"properties":{"X":114.2610252,"Y":30.55150469,"name":"汉商大厦写字楼","volume":"24000","floor_num":"20（1-7商场）","Standard_f":"1200","net_height":"3.6","passenger_":"3","parking_nu":"无","monthly_re":"40左右","property_m":"3.8","vacant_are":"2000","settled_en":210,"address":"湖北省武汉市汉阳区建桥街道归元寺31#号"}},
{"type":"Feature","geometry":{"type":"Point","coordinates":[114.2597672,30.55304392]},"properties":{"X":114.2597672,"Y":30.55304392,"name":"闽东国际商务城3A","volume":"30000","floor_num":"27","Standard_f":"1200","net_height":"3.3","passenger_":"4","parking_nu":"130","monthly_re":"60左右","property_m":"4.6","vacant_are":"4000","settled_en":392,"address":"湖北省武汉市汉阳区建桥街道鹦鹉大道37号"}},
{"type":"Feature","geometry":{"type":"Point","coordinates":[114.2597672,30.55304392]},"properties":{"X":114.2597672,"Y":30.55304392,"name":"闽东国际商务城3B","volume":"22000","floor_num":"27","Standard_f":"1000","net_height":"3.3","passenger_":"4","parking_nu":"130","monthly_re":"55左右","property_m":"2.5","vacant_are":"","settled_en":0,"address":"湖北省武汉市汉阳区建桥街道鹦鹉大道37号"}},
{"type":"Feature","geometry":{"type":"Point","coordinates":[114.2603626,30.54803529]},"properties":{"X":114.2603626,"Y":30.54803529,"name":"宏阳大厦","volume":"21000","floor_num":"16","Standard_f":"1000（4层以上）","net_height":"3","passenger_":"4","parking_nu":"34","monthly_re":"40左右","property_m":"3","vacant_are":"3000","settled_en":82,"address":"湖北省武汉市汉阳区建桥街道翠微路特1号"}},
{"type":"Feature","geometry":{"type":"Point","coordinates":[114.2609784,30.54947542]},"properties":{"X":114.2609784,"Y":30.54947542,"name":"福星惠誉写字楼（钟家村）","volume":"43000","floor_num":"37","Standard_f":"1180","net_height":"4.5","passenger_":"8","parking_nu":"220","monthly_re":"待定","property_m":"待定","vacant_are":"0","settled_en":0,"address":"湖北省武汉市汉阳区建桥街道归元寺75号"}},
{"type":"Feature","geometry":{"type":"Point","coordinates":[114.2600458,30.54552633]},"properties":{"X":114.2600458,"Y":30.54552633,"name":"远洋东方境世界观项目（写字楼）","volume":"待定","floor_num":"待定","Standard_f":"待定","net_height":"待定","passenger_":"待定","parking_nu":"待定","monthly_re":"待定","property_m":"待定","vacant_are":"0","settled_en":0,"address":"湖北省武汉市汉阳区建桥街道鹦鹉大道202#号"}},
{"type":"Feature","geometry":{"type":"Point","coordinates":[114.2432888,30.55106515]},"properties":{"X":114.2432888,"Y":30.55106515,"name":"联海实业","volume":"9900","floor_num":"7","Standard_f":"500","net_height":"3","passenger_":"0","parking_nu":"0","monthly_re":"80","property_m":"0.4","vacant_are":"0","settled_en":0,"address":"湖北省武汉市汉阳区五里墩街街道马沧湖路98号"}},
{"type":"Feature","geometry":{"type":"Point","coordinates":[114.2319704,30.55819987]},"properties":{"X":114.2319704,"Y":30.55819987,"name":"乾能大厦","volume":"8800","floor_num":"7","Standard_f":"1257","net_height":"3.5","passenger_":"2","parking_nu":"0","monthly_re":"18","property_m":"1.8","vacant_are":"0","settled_en":0,"address":"湖北省武汉市汉阳区五里墩街街道汉阳大道512#号"}},
{"type":"Feature","geometry":{"type":"Point","coordinates":[114.2230889,30.55985879]},"properties":{"X":114.2230889,"Y":30.55985879,"name":"同行商务","volume":"8000","floor_num":"8","Standard_f":"1000","net_height":"3","passenger_":"2","parking_nu":"60","monthly_re":"40","property_m":"12","vacant_are":"","settled_en":0,"address":"湖北省武汉市汉阳区五里墩街街道汉阳大道630号"}},
{"type":"Feature","geometry":{"type":"Point","coordinates":[114.2410966,30.55797659]},"properties":{"X":114.2410966,"Y":30.55797659,"name":"和谐家园七里商务楼","volume":"14814.2","floor_num":"18","Standard_f":"804.97","net_height":"3.9","passenger_":"2","parking_nu":"84","monthly_re":"待定","property_m":"5","vacant_are":"","settled_en":0,"address":"湖北省武汉市汉阳区五里墩街街道琴台大道附65号"}},
{"type":"Feature","geometry":{"type":"Point","coordinates":[114.2152769,30.5652038]},"properties":{"X":114.2152769,"Y":30.5652038,"name":"中天能源","volume":"10142.86","floor_num":"9","Standard_f":"1126","net_height":"","passenger_":"2","parking_nu":"40","monthly_re":"","property_m":"","vacant_are":"1100","settled_en":2,"address":"湖北省武汉市汉阳区琴断口街街道赫山路1号"}},
{"type":"Feature","geometry":{"type":"Point","coordinates":[114.2227801,30.56306741]},"properties":{"X":114.2227801,"Y":30.56306741,"name":"金龙公馆综合楼","volume":"16206.71","floor_num":"21","Standard_f":"900.37","net_height":"4.2","passenger_":"4","parking_nu":"80","monthly_re":"65","property_m":"3.6","vacant_are":"0","settled_en":13,"address":"湖北省武汉市汉阳区琴断口街街道汉阳大道642附48号"}},
{"type":"Feature","geometry":{"type":"Point","coordinates":[114.2209689,30.56542109]},"properties":{"X":114.2209689,"Y":30.56542109,"name":"铁桥广场","volume":"18000","floor_num":"24","Standard_f":"936.61","net_height":"3.9","passenger_":"4","parking_nu":"400","monthly_re":"50","property_m":"8","vacant_are":"7492","settled_en":25,"address":"湖北省武汉市汉阳区琴断口街街道百灵路2号"}},
{"type":"Feature","geometry":{"type":"Point","coordinates":[114.202097,30.55398056]},"properties":{"X":114.202097,"Y":30.55398056,"name":"龙阳时代A座","volume":"37479","floor_num":"26","Standard_f":"1441.5","net_height":"5.4","passenger_":"8","parking_nu":"185","monthly_re":"40","property_m":"3.5","vacant_are":"0","settled_en":81,"address":"湖北省武汉市汉阳区琴断口街街道龙阳大道49号"}},
{"type":"Feature","geometry":{"type":"Point","coordinates":[114.202097,30.55398056]},"properties":{"X":114.202097,"Y":30.55398056,"name":"龙阳时代B座","volume":"43245","floor_num":"30","Standard_f":"1441.5","net_height":"5.4","passenger_":"8","parking_nu":"215","monthly_re":"40","property_m":"3.5","vacant_are":"0","settled_en":159,"address":"湖北省武汉市汉阳区琴断口街街道龙阳大道49号"}},
{"type":"Feature","geometry":{"type":"Point","coordinates":[114.2132678,30.55636479]},"properties":{"X":114.2132678,"Y":30.55636479,"name":"电信大厦","volume":"10000","floor_num":"10","Standard_f":"1000","net_height":"","passenger_":"2","parking_nu":"100","monthly_re":"","property_m":"","vacant_are":"0","settled_en":4,"address":"湖北省武汉市汉阳区琴断口街街道芳草路1号"}},
{"type":"Feature","geometry":{"type":"Point","coordinates":[114.2049358,30.56166776]},"properties":{"X":114.2049358,"Y":30.56166776,"name":"顶绣广场","volume":"30800","floor_num":"25","Standard_f":"1232.2","net_height":"2.4","passenger_":"4","parking_nu":"","monthly_re":"65","property_m":"2.2","vacant_are":"9552","settled_en":57,"address":"湖北省武汉市汉阳区琴断口街街道龙阳大道41号"}},
{"type":"Feature","geometry":{"type":"Point","coordinates":[114.1625012,30.56639946]},"properties":{"X":114.1625012,"Y":30.56639946,"name":"米粮城市广场（办公楼）","volume":"20000","floor_num":"18","Standard_f":"1053","net_height":"3","passenger_":"3","parking_nu":"","monthly_re":"","property_m":"","vacant_are":"16000","settled_en":2,"address":"湖北省武汉市汉阳区永丰街街道汉阳大道672号"}},
{"type":"Feature","geometry":{"type":"Point","coordinates":[114.1951238,30.56782726]},"properties":{"X":114.1951238,"Y":30.56782726,"name":"王家湾中央生活区10号楼","volume":"18411.97","floor_num":"19","Standard_f":"1528","net_height":"5.2","passenger_":"3","parking_nu":"36","monthly_re":"","property_m":"6.5","vacant_are":"2000","settled_en":90,"address":"湖北省武汉市汉阳区永丰街街道玉龙路138号"}},
{"type":"Feature","geometry":{"type":"Point","coordinates":[114.1994918,30.56566769]},"properties":{"X":114.1994918,"Y":30.56566769,"name":"中央之星","volume":"36034.96","floor_num":"27","Standard_f":"1350","net_height":"3.6","passenger_":"6","parking_nu":"300","monthly_re":"","property_m":"6.5","vacant_are":"8600","settled_en":150,"address":"湖北省武汉市汉阳区永丰街街道金龙路268号"}},
{"type":"Feature","geometry":{"type":"Point","coordinates":[114.2013767,30.56097809]},"properties":{"X":114.2013767,"Y":30.56097809,"name":"龙阳凯悦大厦A","volume":"16200","floor_num":"23","Standard_f":"701","net_height":"2.3","passenger_":"2","parking_nu":"230","monthly_re":"35","property_m":"3","vacant_are":"600","settled_en":54,"address":"湖北省武汉市汉阳区永丰街街道龙阳大道特6号"}},
{"type":"Feature","geometry":{"type":"Point","coordinates":[114.2026016,30.56008213]},"properties":{"X":114.2026016,"Y":30.56008213,"name":"龙阳凯悦大厦B","volume":"13500","floor_num":"19","Standard_f":"700","net_height":"3","passenger_":"2","parking_nu":"230","monthly_re":"35","property_m":"3","vacant_are":"500","settled_en":70,"address":"湖北省武汉市汉阳区永丰街街道龙阳大道39号"}},
{"type":"Feature","geometry":{"type":"Point","coordinates":[114.1994857,30.5554153]},"properties":{"X":114.1994857,"Y":30.5554153,"name":"人信汇·时代中心","volume":"46500","floor_num":"30","Standard_f":"1540","net_height":"2.8","passenger_":"7","parking_nu":"411","monthly_re":"80","property_m":"6.5","vacant_are":"736","settled_en":107,"address":"湖北省武汉市汉阳区永丰街街道龙阳大道46号"}},
{"type":"Feature","geometry":{"type":"Point","coordinates":[114.1926633,30.53618324]},"properties":{"X":114.1926633,"Y":30.53618324,"name":"升官渡经贸大厦","volume":"23360","floor_num":"29","Standard_f":"700","net_height":"2.8","passenger_":"5","parking_nu":"500","monthly_re":"35","property_m":"4.5","vacant_are":"598","settled_en":15,"address":"湖北省武汉市汉阳区永丰街街道四新北路819附25号"}},
{"type":"Feature","geometry":{"type":"Point","coordinates":[114.1909477,30.5380948]},"properties":{"X":114.1909477,"Y":30.5380948,"name":"欧亚达汉阳国际广场塔楼A座","volume":"23799","floor_num":"16","Standard_f":"1487","net_height":"2.9","passenger_":"7","parking_nu":"2000","monthly_re":"70","property_m":"6","vacant_are":"2333","settled_en":28,"address":"湖北省武汉市汉阳区永丰街街道龙阳大道129号"}},
{"type":"Feature","geometry":{"type":"Point","coordinates":[114.1912705,30.53816731]},"properties":{"X":114.1912705,"Y":30.53816731,"name":"欧亚达汉阳国际广场塔楼B座","volume":"23114","floor_num":"16","Standard_f":"1444","net_height":"2.9","passenger_":"7","parking_nu":"2000","monthly_re":"60","property_m":"6","vacant_are":"2233","settled_en":21,"address":"湖北省武汉市汉阳区永丰街街道龙阳大道131号"}},
{"type":"Feature","geometry":{"type":"Point","coordinates":[114.1916864,30.55192135]},"properties":{"X":114.1916864,"Y":30.55192135,"name":"悦城Lake街区","volume":"40000","floor_num":"28","Standard_f":"770","net_height":"3","passenger_":"9","parking_nu":"880","monthly_re":"50","property_m":"3.7","vacant_are":"4518","settled_en":235,"address":"湖北省武汉市汉阳区永丰街街道隆祥街14号"}},
{"type":"Feature","geometry":{"type":"Point","coordinates":[114.1917068,30.54813868]},"properties":{"X":114.1917068,"Y":30.54813868,"name":"武汉5.5医药产业大厦","volume":"31180","floor_num":"24","Standard_f":"1117","net_height":"2.6","passenger_":"8","parking_nu":"800","monthly_re":"55","property_m":"6","vacant_are":"500","settled_en":160,"address":"湖北省武汉市汉阳区永丰街街道车友路5号"}},
{"type":"Feature","geometry":{"type":"Point","coordinates":[114.201548,30.56155613]},"properties":{"X":114.201548,"Y":30.56155613,"name":"恒信大厦","volume":"30000","floor_num":"24","Standard_f":"1242","net_height":"3.7","passenger_":"6","parking_nu":"863","monthly_re":"120","property_m":"30","vacant_are":"30000","settled_en":0,"address":"湖北省武汉市汉阳区永丰街街道龙阳大道特6号"}},
{"type":"Feature","geometry":{"type":"Point","coordinates":[114.1494648,30.592138]},"properties":{"X":114.1494648,"Y":30.592138,"name":"黄金口科技企业孵化基地（金科创业大厦）1号楼\n","volume":"39926.36","floor_num":"20","Standard_f":"1162.93","net_height":"2.8","passenger_":"7","parking_nu":"210","monthly_re":"17","property_m":"3","vacant_are":"0","settled_en":0,"address":"湖北省武汉市汉阳区永丰街街道黄金口大道13号"}},
{"type":"Feature","geometry":{"type":"Point","coordinates":[114.198685,30.55183335]},"properties":{"X":114.198685,"Y":30.55183335,"name":"麦迪森广场（九州通大厦）A座","volume":"32125","floor_num":"31","Standard_f":"1025","net_height":"2.5","passenger_":"4","parking_nu":"600","monthly_re":"45","property_m":"3","vacant_are":"0","settled_en":0,"address":"湖北省武汉市汉阳区永丰街街道龙阳大道68号"}},
{"type":"Feature","geometry":{"type":"Point","coordinates":[114.1982771,30.55175177]},"properties":{"X":114.1982771,"Y":30.55175177,"name":"麦迪森广场（九州通大厦）B座","volume":"31775","floor_num":"31","Standard_f":"1025","net_height":"2.5","passenger_":"4","parking_nu":"600","monthly_re":"45","property_m":"3","vacant_are":"0","settled_en":0,"address":"湖北省武汉市汉阳区永丰街街道龙阳大道80号"}},
{"type":"Feature","geometry":{"type":"Point","coordinates":[114.2554775,30.52318597]},"properties":{"X":114.2554775,"Y":30.52318597,"name":"复地海上海C4号楼","volume":"38798.8","floor_num":"35","Standard_f":"1100","net_height":"4","passenger_":"6","parking_nu":"780（共用地下停车场）","monthly_re":"","property_m":"5","vacant_are":"0","settled_en":34,"address":"湖北省武汉市汉阳区洲头街街道建港路特1号"}},
{"type":"Feature","geometry":{"type":"Point","coordinates":[114.2383779,30.51506126]},"properties":{"X":114.2383779,"Y":30.51506126,"name":"绿地国博A座（2#楼）","volume":"48922.58","floor_num":"29","Standard_f":"1300","net_height":"2.4","passenger_":"9","parking_nu":"","monthly_re":"50","property_m":"3.5","vacant_are":"8802.75","settled_en":68,"address":"湖北省武汉市汉阳区洲头街街道四新大道115号"}},
{"type":"Feature","geometry":{"type":"Point","coordinates":[114.237459,30.51538394]},"properties":{"X":114.237459,"Y":30.51538394,"name":"绿地国博B座（10#楼）","volume":"43736.89","floor_num":"29","Standard_f":"1300","net_height":"2.4","passenger_":"8","parking_nu":"300","monthly_re":"50","property_m":"2.5","vacant_are":"8972.46","settled_en":5,"address":"湖北省武汉市汉阳区洲头街街道四新北路115号"}},
{"type":"Feature","geometry":{"type":"Point","coordinates":[114.2366142,30.51470093]},"properties":{"X":114.2366142,"Y":30.51470093,"name":"绿地国博财富中心（超高层）","volume":"86955","floor_num":"45","Standard_f":"2100","net_height":"4.5","passenger_":"10","parking_nu":"300（共用地下停车场）","monthly_re":"","property_m":"暂无","vacant_are":"40000","settled_en":0,"address":"湖北省武汉市汉阳区洲头街街道四新北路121号"}},
{"type":"Feature","geometry":{"type":"Point","coordinates":[114.2438851,30.5170163]},"properties":{"X":114.2438851,"Y":30.5170163,"name":"恒大御景湾滨江中心一号楼","volume":"100000","floor_num":"58","Standard_f":"1200","net_height":"3.5","passenger_":"14","parking_nu":"320（共用地下停车场）","monthly_re":"","property_m":"6","vacant_are":"0","settled_en":35,"address":"湖北省武汉市汉阳区洲头街街道鹦鹉大道493号"}},
{"type":"Feature","geometry":{"type":"Point","coordinates":[114.2152201,30.52584906]},"properties":{"X":114.2152201,"Y":30.52584906,"name":"星光国际","volume":"18000","floor_num":"32","Standard_f":"1461.5","net_height":"3.8","passenger_":"6","parking_nu":"802","monthly_re":"45-55","property_m":"5元","vacant_are":"13116","settled_en":15,"address":"湖北省武汉市汉阳区四新地区管委会梅林西路12附4"}},
{"type":"Feature","geometry":{"type":"Point","coordinates":[114.2144508,30.52431074]},"properties":{"X":114.2144508,"Y":30.52431074,"name":"欣隆壹号公馆","volume":"20000","floor_num":"18","Standard_f":"1263","net_height":"","passenger_":"6","parking_nu":"1416","monthly_re":"60(三年起租)","property_m":"7元","vacant_are":"20000","settled_en":35,"address":"湖北省武汉市汉阳区四新地区管委会江城大道358号"}},
{"type":"Feature","geometry":{"type":"Point","coordinates":[114.2100056,30.51667912]},"properties":{"X":114.2100056,"Y":30.51667912,"name":"和昌中心","volume":"26350","floor_num":"25","Standard_f":"1054","net_height":"2.6","passenger_":"4","parking_nu":"320","monthly_re":"55","property_m":"5","vacant_are":"0","settled_en":32,"address":"湖北省武汉市汉阳区四新地区管委会江城大道348号"}},
{"type":"Feature","geometry":{"type":"Point","coordinates":[114.2206411,30.53409154]},"properties":{"X":114.2206411,"Y":30.53409154,"name":"麦普利斯广场A座","volume":"15000","floor_num":"15","Standard_f":"1000","net_height":"2.5","passenger_":"4","parking_nu":"","monthly_re":"50","property_m":"3.5","vacant_are":"0","settled_en":19,"address":"湖北省武汉市汉阳区四新地区管委会江城大道1872号"}},
{"type":"Feature","geometry":{"type":"Point","coordinates":[114.2203527,30.53261977]},"properties":{"X":114.2203527,"Y":30.53261977,"name":"麦普利斯广场B座","volume":"31900","floor_num":"29","Standard_f":"1100","net_height":"3","passenger_":"4","parking_nu":"","monthly_re":"55","property_m":"3.5","vacant_are":"0","settled_en":0,"address":"湖北省武汉市汉阳区四新地区管委会江城大道288号"}},
{"type":"Feature","geometry":{"type":"Point","coordinates":[114.1780612,30.54155411]},"properties":{"X":114.1780612,"Y":30.54155411,"name":"光明中心","volume":"69046.35","floor_num":"41","Standard_f":"1815","net_height":"4.2","passenger_":"15","parking_nu":"700","monthly_re":"75","property_m":"25","vacant_are":"63190.91","settled_en":3,"address":"湖北省武汉市汉阳区永丰街街道四新南路35号"}},
{"type":"Feature","geometry":{"type":"Point","coordinates":[114.2121511,30.51490316]},"properties":{"X":114.2121511,"Y":30.51490316,"name":"华发未来荟写字楼","volume":"51000","floor_num":"37","Standard_f":"1433.14","net_height":"3.9","passenger_":"8","parking_nu":"881","monthly_re":"60","property_m":"22","vacant_are":"42867.87","settled_en":1,"address":"湖北省武汉市汉阳区江堤街街道四新南路195号"}},
{"type":"Feature","geometry":{"type":"Point","coordinates":[114.2487815,30.52161347]},"properties":{"X":114.2487815,"Y":30.52161347,"name":"滨江御府1#楼","volume":"132042.9","floor_num":"41","Standard_f":"1159.68","net_height":"213","passenger_":"9","parking_nu":"860","monthly_re":"","property_m":"","vacant_are":"97650","settled_en":0,"address":"湖北省武汉市汉阳区洲头街街道洲头五路50号"}},
{"type":"Feature","geometry":{"type":"Point","coordinates":[114.2011442,30.53670404]},"properties":{"X":114.2011442,"Y":30.53670404,"name":"汉city总部壹号（K3-5）","volume":"46000","floor_num":"43","Standard_f":"1372","net_height":"4.2","passenger_":"11","parking_nu":"2279","monthly_re":"100","property_m":"15","vacant_are":"5600","settled_en":1,"address":"湖北省武汉市汉阳区四新地区管委会芳草路93号"}},
{"type":"Feature","geometry":{"type":"Point","coordinates":[114.2059337,30.56533478]},"properties":{"X":114.2059337,"Y":30.56533478,"name":"海天广场","volume":"125000","floor_num":"30","Standard_f":"800","net_height":"4","passenger_":"16","parking_nu":"800","monthly_re":"100","property_m":"3.8","vacant_are":"8000","settled_en":50,"address":"湖北省武汉市汉阳区江汉二桥街道汉阳大道582号"}}
]}